id,name,lat,lng
27001800,Hiawatha,44.92103406,-93.23614096
27002300,Mother,44.89329773,-93.24101276
27001900,Nokomis,44.90863394,-93.24218679
27068300,Taft,44.89295094,-93.24975219
27002400,Legion,44.88576012,-93.26224048
27002200,Diamond,44.90043312,-93.26933949
27068400,Milner Pond,44.88582221,-93.27041654
27068500,Norby's Pond,44.87747333,-93.2741796
27001600,Harriet,44.921843,-93.30501506
27001700,Cemetery,44.93277799,-93.30606527
27004000,Lake of the Isles,44.95540318,-93.30709304
27003100,Calhoun,44.94183604,-93.31184686
27003900,Cedar,44.95986072,-93.32160602
27003800,Brownie,44.96760816,-93.32432684
27067500,Pamela Pond,44.89253886,-93.33232596
27001500,Bass,44.94046655,-93.33576575
27065600,Twin,44.95910488,-93.3374801
27066400,Wolfe Park,44.93521605,-93.34368097
27004100,Edina Mill Pond,44.91532133,-93.3456071
27067000,Harvey,44.90352441,-93.34687178
27066900,Melody,44.900113299999994,-93.35319831
27005400,Meadowbrook,44.92203369,-93.36196485
27066100,South Oak,44.9342598,-93.37045146
27071000,Lamplighter,44.96612696,-93.3776458
27005100,Victoria,44.952737799999994,-93.38540883
27077900,Unnamed,44.93344496,-93.38808814
27071400,Westling,44.95126166,-93.38916185
27005300,Unnamed (Cobblecrest),44.95013029,-93.3934835
27005200,Hannan,44.95325067,-93.39545714
27071300,Unnamed (Cedar Manor),44.95714124,-93.39843963
27008400,Minnehaha Marsh,44.95222452,-93.40641127
27008200,Windsor,44.9642472,-93.40975751
27077100,Unnamed,44.9317306,-93.45662366
27075100,Unnamed,44.96024835,-93.4647823
27075000,Unnamed,44.95785924,-93.46926687
27074700,Unnamed,44.95538291,-93.47902767
27073900,Unnamed,44.97841855,-93.47972799
27013300,Gray's Bay Outlet,44.95136266,-93.48421759
27074600,Unnamed,44.95534193,-93.48459089
27068701,Unnamed (East),44.96598591,-93.48596559
27013301,Grays Bay,44.954714200000005,-93.48613055
27008500,Libbs,44.9464192,-93.48783988
99001038,Unnamed,45.00113623,-93.49268171
27009500,Gleason,44.98171327,-93.49280602
27010800,Snyder,45.00142227,-93.50178724
27046800,Unnamed,45.00199573,-93.50671975
27008600,Shaver,44.94540856,-93.50752802
27082200,Unnamed,44.99436868,-93.50780598
27082400,Unnamed,44.98859613,-93.50800044
27013302,Wayzata Bay,44.96066861,-93.51139787
27010900,Hadley,44.98677975,-93.51582619
27008700,Marion,44.94719694,-93.51799869
27087000,Louise,44.94078481,-93.52019442
27013400,Mooney,45.00046635,-93.52084104
27013303,Carsons Bay,44.92620795,-93.53021888
27087600,Hooper,44.91456105,-93.53157385
27015800,Holy Name,45.01564948,-93.53174668
27015900,Lydiard,44.99119557,-93.53259151
27013800,Peavey Lake,44.9647862,-93.53599977
27087700,Unnamed,44.91104272,-93.53654673
27014200,William,44.917649600000004,-93.54657288
27013304,St. Albans Bay,44.90727332,-93.55237959
27016000,Long,44.98906221,-93.55776598
27014100,Tanager Lake,44.96201508,-93.56363456
27014400,Galpin,44.89684546,-93.56462236
27089600,Unnamed (Mud),44.89980385,-93.56649006
27015700,Wolsfeld,45.00545422,-93.57240356
27089800,Unnamed,44.90092067,-93.5753957
27016100,Dickey's,44.99457531,-93.57813134
27014300,Mary,44.89721208,-93.58367982
27014000,French Marsh,44.95995235,-93.58414175
27090000,Unnamed,44.89190561,-93.58788972
27015600,Thies,45.01090578,-93.58827502
27015500,Krieg,45.01806718,-93.59009058
27090800,Unnamed,44.913346600000004,-93.59182277
27015000,Marsh,45.03206475,-93.59428079
27015100,School,45.02326033,-93.59853176
27013310,Crystal Bay,44.94664341,-93.59966869
27091200,Unnamed,44.934718700000005,-93.60391666
27013305,Carman Bay,44.92600669,-93.60549031
27013311,Maxwell Bay,44.95972751,-93.60558945
27016200,Classen,44.99288856,-93.60592019
10000900,Minnewashta,44.87946822,-93.60836027
99001005,Unnamed,45.00741999,-93.61318246
27013312,Stubbs Bay,44.96968203,-93.61604425
27051800,Academy Marsh,45.01891023,-93.62030591
27013313,North Arm,44.95924111,-93.62170304
27052200,Unnamed,45.00309632,-93.62175066
10020600,Unnamed,44.86249222,-93.62235445
10001100,St. Joe,44.87481826,-93.62289049
27015400,Katrina,45.00803441,-93.62544383
10001500,Virginia,44.88616049,-93.63263589
27013900,Forest Lake,44.9573127,-93.63341351
10001000,Tamarack,44.87340409,-93.63482603
27013306,Black Lake,44.93126176,-93.63571382
27096500,Unnamed,44.89543785,-93.63644993
27094500,Unnamed,44.96730109,-93.63701053
27040800,Unnamed,45.00733692,-93.63941251
99000999,Unnamed,45.00936812,-93.64259939
10001800,Schutz,44.87597237,-93.64615358
27094800,Unnamed,44.91960352,-93.65259039
27013315,Jennings Bay,44.95335895,-93.65343473
27013314,Harrisons Bay,44.94233701,-93.65408631
27094700,Unnamed,44.91654434,-93.65425111
10004500,Steiger,44.86681916,-93.65944399
10004100,Zumbra,44.88400636,-93.66508136
10020001,Unnamed (north portion),44.847676,-93.6663145
10004600,Church,44.85579675,-93.66673271
10020002,Unnamed (south portion),44.8445276,-93.66899740000001
10004700,Kelser's Pond,44.85520491,-93.67296358
10004800,Wassermann,44.84142876,-93.67458232
27018200,Langdon,44.9331227,-93.67475607
10005600,Stone,44.88873114,-93.67897001
10005400,Marsh,44.82921423,-93.67969435
10004400,East Auburn,44.86529569,-93.68038487
27109600,Unnamed,44.90155252,-93.68044324
27018100,Dutch,44.94405218,-93.68076913
10013400,Sunny,44.87920629,-93.68236075
27095200,Unnamed,44.9370186,-93.6873335
10013500,Unnamed,44.88293915,-93.68795645
10005000,Carl Krey,44.85154804,-93.68866349
27013309,Halsted Bay,44.913064299999995,-93.68913245
27018500,Saunders,44.9292351,-93.69114319
10004401,West Auburn,44.86798038,-93.69403050000001
10005300,Piersons,44.83267232,-93.69809572
10013800,Unnamed,44.88219862,-93.69917662
10019100,Unnamed,44.85328551,-93.69955777
27018300,Unnamed (Black),44.9350344,-93.70038603
10004900,Unnamed (Auburn Marsh),44.85940257,-93.7009469
10013900,Unnamed,44.875554,-93.70158897
27095800,Unnamed,44.91814195,-93.70283991
27093900,Unnamed,44.95153788,-93.70289687
27095700,Unnamed,44.91948799,-93.70312183
10014000,Unnamed,44.88001216,-93.70773829
10004300,Lundsten South Bay,44.86623538,-93.70904188
10014100,Unnamed,44.8881679,-93.71010547
10005100,Turbid,44.84992022,-93.71703851
10004200,Parley,44.88238143,-93.73093785
10019000,Unnamed,44.85991459,-93.73621933
27018600,Mud,44.8944434,-93.74118695
10014300,Unnamed,44.87818129,-93.74894941
